{
  "students": [
    {
      "id": "1",
      "name": "Rajat Sharma",
      "phone": "9876543210",
      "location": "Delhi",
      "courses": [
        "C",
        "C++"
      ]
    },
    {
      "id": "2",
      "name": "Priya Mehta",
      "phone": "9123456789",
      "location": "Mumbai",
      "courses": [
        "Java",
        "Python"
      ]
    },
    {
      "id": "3",
      "name": "Aman Verma",
      "phone": "9988776655",
      "location": "Bangalore",
      "courses": [
        "C",
        "C++",
        "DSA"
      ]
    },
    {
      "id": "4",
      "name": "Sneha Gupta",
      "phone": "9090909090",
      "location": "Hyderabad",
      "courses": [
        "HTML",
        "CSS",
        "JavaScript"
      ]
    },
    {
      "id": "5",
      "name": "Karan Malhotra",
      "phone": "9000012345",
      "location": "Chennai",
      "courses": [
        "Python",
        "Machine Learning"
      ]
    },
    {
      "id": "af02",
      "courses": [
        "RMJ",
        "ControlM"
      ],
      "phone": "720549",
      "name": "Rahul",
      "location": "Keonjhar"
    },
    {
      "id": "9118",
      "courses": [
        "RMJ",
        "ControlM"
      ],
      "phone": "720549",
      "name": "Rahul",
      "location": "Keonjhar"
    },
    {
      "id": "c7aa",
      "courses": [
        "RMJ",
        "ControlM"
      ],
      "phone": "720549",
      "name": "Rahul",
      "location": "Keonjhar"
    },
    {
      "id": "c644",
      "courses": [
        "RMJ",
        "ControlM"
      ],
      "phone": "720549",
      "name": "Rahul",
      "location": "Keonjhar"
    },
    {
      "id": "e481",
      "courses": [
        "RMJ",
        "ControlM"
      ],
      "phone": "720549",
      "name": "Rahul",
      "location": "Keonjhar"
    },
    {
      "courses": [
        "RMJ",
        "ControlM"
      ],
      "phone": "720549",
      "name": "Rahul",
      "location": "Keonjhar",
      "id": "-T59yA-"
    },
    {
      "courses": [
        "RMJ",
        "ControlM"
      ],
      "phone": "720549",
      "name": "Rahul",
      "location": "Keonjhar",
      "id": "p6HH22i"
    },
    {
      "courses": [
        "RMJ",
        "ControlM"
      ],
      "phone": "720549",
      "name": "Rahul",
      "location": "Keonjhar",
      "id": "WIfuowL"
    },
    {
      "empty": false,
      "mapType": "java.util.HashMap",
      "id": "XG0Cgf3"
    },
    {
      "empty": false,
      "mapType": "java.util.HashMap",
      "id": "5ErJ2Lj"
    },
    {
      "empty": false,
      "mapType": "java.util.HashMap",
      "id": "-kDJStt"
    }
  ]
}